[
  {
    "id": 1,
    "name": "The Moon Under Water",
    "townCity": "Manchester",
    "address": "68-74 Deansgate",
    "county": "Greater Manchester",
    "region": "North West England",
    "country": "England",
    "lat": 53.4823,
    "lng": -2.2459,
    "url": "https://www.jdwetherspoon.com/pubs/all-pubs/england/greater-manchester/the-moon-under-water-manchester",
    "imageUrl": "",
    "openState": "Open"
  },
  {
    "id": 2,
    "name": "The Coronet",
    "townCity": "London",
    "address": "338-346 Holloway Road",
    "county": "Greater London",
    "region": "London",
    "country": "England",
    "lat": 51.5565,
    "lng": -0.1178,
    "url": "https://www.jdwetherspoon.com/pubs/all-pubs/england/london/the-coronet-holloway",
    "imageUrl": "",
    "openState": "Open"
  },
  {
    "id": 3,
    "name": "The Standing Order",
    "townCity": "Edinburgh",
    "address": "62-66 George Street",
    "county": "Edinburgh",
    "region": "Scotland",
    "country": "Scotland",
    "lat": 55.9533,
    "lng": -3.1975,
    "url": "https://www.jdwetherspoon.com/pubs/all-pubs/scotland/edinburgh/the-standing-order-edinburgh",
    "imageUrl": "",
    "openState": "Open"
  },
  {
    "id": 4,
    "name": "The Regal",
    "townCity": "Cambridge",
    "address": "38-39 Saint Andrew's Street",
    "county": "Cambridgeshire",
    "region": "East of England",
    "country": "England",
    "lat": 52.2053,
    "lng": 0.1218,
    "url": "https://www.jdwetherspoon.com/pubs/all-pubs/england/cambridgeshire/the-regal-cambridge",
    "imageUrl": "",
    "openState": "Open"
  },
  {
    "id": 5,
    "name": "The Company Inn",
    "townCity": "Bristol",
    "address": "8 Little King Street",
    "county": "Bristol",
    "region": "South West England",
    "country": "England",
    "lat": 51.4545,
    "lng": -2.5879,
    "url": "https://www.jdwetherspoon.com/pubs/all-pubs/england/bristol/the-company-inn-bristol",
    "imageUrl": "",
    "openState": "Open"
  },
  {
    "id": 6,
    "name": "The Counting House",
    "townCity": "Glasgow",
    "address": "2 St Vincent Place",
    "county": "Glasgow",
    "region": "Scotland",
    "country": "Scotland",
    "lat": 55.8596,
    "lng": -4.2518,
    "url": "https://www.jdwetherspoon.com/pubs/all-pubs/scotland/glasgow/the-counting-house-glasgow",
    "imageUrl": "",
    "openState": "Open"
  },
  {
    "id": 7,
    "name": "The Welkin",
    "townCity": "Nottingham",
    "address": "20-22 Victoria Street",
    "county": "Nottinghamshire",
    "region": "East Midlands",
    "country": "England",
    "lat": 52.9548,
    "lng": -1.1581,
    "url": "https://www.jdwetherspoon.com/pubs/all-pubs/england/nottinghamshire/the-welkin-nottingham",
    "imageUrl": "",
    "openState": "Open"
  },
  {
    "id": 8,
    "name": "The Postal Order",
    "townCity": "Brighton",
    "address": "95 North Street",
    "county": "East Sussex",
    "region": "South East England",
    "country": "England",
    "lat": 50.8225,
    "lng": -0.1372,
    "url": "https://www.jdwetherspoon.com/pubs/all-pubs/england/east-sussex/the-postal-order-brighton",
    "imageUrl": "",
    "openState": "Open"
  },
  {
    "id": 9,
    "name": "The Velvet Coaster",
    "townCity": "Cardiff",
    "address": "17 Church Street",
    "county": "Cardiff",
    "region": "Wales",
    "country": "Wales",
    "lat": 51.4816,
    "lng": -3.1791,
    "url": "https://www.jdwetherspoon.com/pubs/all-pubs/wales/cardiff/the-velvet-coaster-cardiff",
    "imageUrl": "",
    "openState": "Open"
  },
  {
    "id": 10,
    "name": "The Picture House",
    "townCity": "Birmingham",
    "address": "54-58 Broad Street",
    "county": "West Midlands",
    "region": "West Midlands",
    "country": "England",
    "lat": 52.4783,
    "lng": -1.9067,
    "url": "https://www.jdwetherspoon.com/pubs/all-pubs/england/west-midlands/the-picture-house-birmingham",
    "imageUrl": "",
    "openState": "Open"
  },
  {
    "id": 11,
    "name": "The Bankers Draft",
    "townCity": "Leeds",
    "address": "18-22 Boar Lane",
    "county": "West Yorkshire",
    "region": "Yorkshire and the Humber",
    "country": "England",
    "lat": 53.7974,
    "lng": -1.5437,
    "url": "https://www.jdwetherspoon.com/pubs/all-pubs/england/west-yorkshire/the-bankers-draft-leeds",
    "imageUrl": "",
    "openState": "Open"
  },
  {
    "id": 12,
    "name": "The Parliament House",
    "townCity": "York",
    "address": "2 St Helen's Square",
    "county": "North Yorkshire",
    "region": "Yorkshire and the Humber",
    "country": "England",
    "lat": 53.9591,
    "lng": -1.0815,
    "url": "https://www.jdwetherspoon.com/pubs/all-pubs/england/north-yorkshire/the-parliament-house-york",
    "imageUrl": "",
    "openState": "Open"
  },
  {
    "id": 13,
    "name": "The Square Peg",
    "townCity": "Birmingham",
    "address": "115 Corporation Street",
    "county": "West Midlands",
    "region": "West Midlands",
    "country": "England",
    "lat": 52.4814,
    "lng": -1.8998,
    "url": "https://www.jdwetherspoon.com/pubs/all-pubs/england/west-midlands/the-square-peg-birmingham",
    "imageUrl": "",
    "openState": "Open"
  },
  {
    "id": 14,
    "name": "The Wouldhave",
    "townCity": "South Shields",
    "address": "1 Mile End Road",
    "county": "Tyne and Wear",
    "region": "North East England",
    "country": "England",
    "lat": 54.9988,
    "lng": -1.4324,
    "url": "https://www.jdwetherspoon.com/pubs/all-pubs/england/tyne-and-wear/the-wouldhave-south-shields",
    "imageUrl": "",
    "openState": "Open"
  },
  {
    "id": 15,
    "name": "The Sir John Stirling Maxwell",
    "townCity": "Glasgow",
    "address": "140-144 Kilmarnock Road",
    "county": "Glasgow",
    "region": "Scotland",
    "country": "Scotland",
    "lat": 55.8294,
    "lng": -4.2694,
    "url": "https://www.jdwetherspoon.com/pubs/all-pubs/scotland/glasgow/the-sir-john-stirling-maxwell-glasgow",
    "imageUrl": "",
    "openState": "Open"
  }
]
